id,lng,lat,name,is_outlet
1,-14.36201,65.50253,Lagarfljot River at Lagarfoss,true
2,-15.0883,64.9839,Jokulsa I River at Fljotsdal Holl,false
3,-14.533,65.14,Gringa Dam,false
4,-14.481,65.328,Route 1 over Ranga,false
5,-15.186,64.735,Lake Sauoarvatr outlet,false